[
    {
        "ip": "185.105.37.133",
        "location": {
          "country": "ES",
          "region": "Comunidad de Madrid",
          "city": "Las Cortes",
          "lat": 40.41613,
          "lng": -3.69674,
          "postalCode": "",
          "timezone": "+02:00",
          "geonameId": 6545082
        },
        "as": {
          "asn": 57269,
          "name": "DIGISPAINTELECOM",
          "route": "185.105.36.0/22",
          "domain": "dan.epure",
          "type": "Cable/DSL/ISP"
        },
        "isp": "Digi Spain Telecom"
      },
      {
        "ip": "192.212.174.101",
        "location": {
          "country": "US",
          "region": "California",
          "city": "Rosemead",
          "lat": 34.08057,
          "lng": -118.07285,
          "postalCode": "91770",
          "timezone": "-07:00",
          "geonameId": 5388867
        },
        "as": { "asn": 7127, "name": "SCE", "route": "192.212.0.0/15", "domain": "", "type": "" },
        "isp": ""
    },
    {
        "ip": "27.217.60.122",
        "location": {
            "country": "27501 Corwin Coves",
            "city": "Gaupne",
            "region": "NO",
            "lat": 78.53542137653055,
            "lng": 9.265076381109404,
            "postalCode": "6861",
            "timezone": "UTC+01:00 (CET)",
            "geonameId": 8242538
        },
        "as": {
            "asn": 27863,
            "name": "Champlin Inc",
            "route": "",
            "type": "Cable/DSL/ISP"
        },
        "isp": "Tops Holding"
    },
    {
        "ip": "62.231.95.216",
        "location": {
            "country": "0546 Giovanny Harbor",
            "city": "Hoyvík",
            "region": "FO",
            "lat": 47.32931291838199,
            "lng": 56.990884428520786,
            "postalCode": "478",
            "timezone": "UTC±00:00 (GMT)",
            "geonameId": 1127338
        },
        "as": {
            "asn": 42856,
            "name": "Hyatt - Yundt",
            "route": "",
            "type": "Cable/DSL/ISP"
        },
        "isp": "Thor Industries"
    },
    {
        "ip": "32.116.78.53",
        "location": {
            "country": "6556 Fay Ridges",
            "city": "Puerto Alto",
            "region": "HN",
            "lat": 14.740688916516445,
            "lng": -87.9803227646077,
            "postalCode": "97845",
            "timezone": "UTC−06:00 (CST)",
            "geonameId": 3414819
        },
        "as": {
            "asn": 65789,
            "name": "Kessler and Sons",
            "route": "",
            "type": "Cable/DSL/ISP"
        },
        "isp": "Micron Technology"
    },
    {
        "ip": "148.151.124.58",
        "location": {
            "country": "0361 Gabrielle Throughway",
            "city": "Kikuchi",
            "region": "JP",
            "lat": 35.04414559174381,
            "lng": 141.81678999247336,
            "postalCode": "099-5544",
            "timezone": "UTC+09:00 (JST)",
            "geonameId": 6128248
        },
        "as": {
            "asn": 91504,
            "name": "Howe LLC",
            "route": "",
            "type": "Cable/DSL/ISP"
        },
        "isp": "Henry Schein"
    }
]